[
    {
      "place_id": "desc_001",
      "name": "Área de Descanso El Valle",
      "latitude": 20.044801,
      "longitude": -98.892304,
      "vicinity": "Carretera Pachuca-Tizayuca Km 74, Hidalgo",
      "tipo": "area_descanso",
      "rating": 4.6,
      "user_ratings_total": 34,
      "open_now": true,
      "restrooms": true,
      "tables": true,
      "parking": true
    },
    {
      "place_id": "desc_002",
      "name": "Mirador San Javier",
      "latitude": 20.003245,
      "longitude": -98.960184,
      "vicinity": "Km 78, Tizayuca",
      "tipo": "area_descanso",
      "rating": 4.4,
      "user_ratings_total": 20,
      "restrooms": true,
      "tables": false,
      "parking": true
    },
    {
      "place_id": "desc_003",
      "name": "Parador Tolcayuca",
      "latitude": 19.991440,
      "longitude": -98.900111,
      "vicinity": "Carretera México-Pachuca Km 76, Tolcayuca",
      "tipo": "area_descanso",
      "rating": 4.3,
      "user_ratings_total": 22,
      "open_now": true,
      "restrooms": true,
      "tables": true,
      "parking": true
    },
    {
      "place_id": "desc_004",
      "name": "Zona de Descanso El Mezquite",
      "latitude": 19.962021,
      "longitude": -98.860102,
      "vicinity": "Km 65, Tecámac",
      "tipo": "area_descanso",
      "rating": 4.2,
      "user_ratings_total": 17,
      "restrooms": false,
      "tables": true,
      "parking": true
    },
    {
      "place_id": "desc_005",
      "name": "Área Verde Ojo de Agua",
      "latitude": 19.912500,
      "longitude": -98.820800,
      "vicinity": "Ojo de Agua, Tecámac",
      "tipo": "area_descanso",
      "rating": 4.7,
      "user_ratings_total": 28,
      "restrooms": true,
      "tables": true,
      "parking": true
    },
    {
      "place_id": "desc_006",
      "name": "Parada El Cedro",
      "latitude": 19.910105,
      "longitude": -98.800900,
      "vicinity": "Carretera México-Pachuca Km 55, Ecatepec",
      "tipo": "area_descanso",
      "rating": 4.5,
      "user_ratings_total": 11,
      "restrooms": true,
      "tables": false,
      "parking": true
    },
    {
      "place_id": "desc_007",
      "name": "Mirador Las Palmas",
      "latitude": 19.895900,
      "longitude": -98.814000,
      "vicinity": "Km 54, Ecatepec",
      "tipo": "area_descanso",
      "rating": 4.3,
      "user_ratings_total": 9,
      "restrooms": false,
      "tables": true,
      "parking": true
    },
    {
      "place_id": "desc_008",
      "name": "Zona de Descanso San Pedro",
      "latitude": 19.885120,
      "longitude": -98.802220,
      "vicinity": "Ecatepec Km 52",
      "tipo": "area_descanso",
      "rating": 4.0,
      "user_ratings_total": 6,
      "restrooms": false,
      "tables": true,
      "parking": false
    },
    {
      "place_id": "desc_009",
      "name": "Parador Ecatepec",
      "latitude": 19.870800,
      "longitude": -98.800100,
      "vicinity": "Carretera México-Pachuca Km 50, Ecatepec",
      "tipo": "area_descanso",
      "rating": 4.4,
      "user_ratings_total": 13,
      "restrooms": true,
      "tables": true,
      "parking": true
    },
    {
      "place_id": "desc_010",
      "name": "Descanso Santa Clara",
      "latitude": 19.860222,
      "longitude": -98.793450,
      "vicinity": "Av. Central, Ecatepec",
      "tipo": "area_descanso",
      "rating": 4.2,
      "user_ratings_total": 8,
      "restrooms": false,
      "tables": false,
      "parking": true
    },
    {
      "place_id": "desc_011",
      "name": "Parque Industrial Rest Stop",
      "latitude": 19.855500,
      "longitude": -98.782200,
      "vicinity": "Parque Industrial, Ecatepec",
      "tipo": "area_descanso",
      "rating": 4.1,
      "user_ratings_total": 15,
      "restrooms": true,
      "tables": true,
      "parking": true
    },
    {
      "place_id": "desc_012",
      "name": "Zona de Picnic Lindavista",
      "latitude": 19.495900,
      "longitude": -99.115010,
      "vicinity": "Montevideo 210, Lindavista, CDMX",
      "tipo": "area_descanso",
      "rating": 4.8,
      "user_ratings_total": 24,
      "restrooms": true,
      "tables": true,
      "parking": false
    },
    {
      "place_id": "desc_013",
      "name": "Descanso Insurgentes",
      "latitude": 19.487712,
      "longitude": -99.120210,
      "vicinity": "Insurgentes Norte, CDMX",
      "tipo": "area_descanso",
      "rating": 4.3,
      "user_ratings_total": 16,
      "restrooms": true,
      "tables": false,
      "parking": true
    },
    {
      "place_id": "desc_014",
      "name": "Área Natural Villa de Guadalupe",
      "latitude": 19.486900,
      "longitude": -99.119950,
      "vicinity": "Villa de Guadalupe, CDMX",
      "tipo": "area_descanso",
      "rating": 4.7,
      "user_ratings_total": 14,
      "restrooms": false,
      "tables": true,
      "parking": false
    },
    {
      "place_id": "desc_015",
      "name": "Mirador La Villa",
      "latitude": 19.485600,
      "longitude": -99.117350,
      "vicinity": "CDMX, cerca de La Villa",
      "tipo": "area_descanso",
      "rating": 4.5,
      "user_ratings_total": 18,
      "restrooms": true,
      "tables": true,
      "parking": true
    }
  ]
